<route>
    <location>
        <title></title>
        <lat>-0.0934</lat>
        <lon>51.5135</lon>
        <camera>
        	<xrot>0</xrot>
        	<yrot>0</yrot>
        	<zrot>0</zrot>
        	<distance>2500</distance>
        </camera>
    </location>
    <location>
        <title>Barbican</title>
        <lat>-0.09781</lat>
        <lon>51.51356</lon>
        <titleImg>Barbican_Plain.png</titleImg>
        <detailImg>Barbican.png</detailImg>
    </location>
    <location>
        <title>Canary Wharf</title>
        <lat>-0.08907</lat>
        <lon>51.51331</lon>
        <titleImg>Canary Wharf_plain.png</titleImg>
        <detailImg>Canary Wharf.png</detailImg>
    </location>
    <location>
        <title>Custom House</title>
        <lat>-0.08122</lat>
        <lon>51.51877</lon>
        <titleImg>Custom House_plain.png</titleImg>
        <detailImg>Custom House.png</detailImg>
    </location>
    <location>
        <title>TCR</title>
        <lat>-0.07577</lat>
        <lon>51.51421</lon>
        <titleImg>TCR_Plain.png</titleImg>
        <detailImg>TCR.png</detailImg>
    </location>
    <location>
        <title>Woolwich</title>
        <lat>-0.07577</lat>
        <lon>51.51421</lon>
        <titleImg>Woolwich_Plain.png</titleImg>
        <detailImg>Woolwich.png</detailImg>
    </location>
</route>